{
    "pageProps": {
        "mountains": [
            {
                "id": 2,
                "MountainCategoryID": 11,
                "ukHillsDbLongitude": "-4.782550",
                "ukHillsDbLatitude": "56.249433",
                "ukHillsDbName": "Ben Vane",
                "ukHillsDbSection": "1.4",
                "urlName": "Ben_Vane",
                "Height": 915
            },
            {
                "id": 3,
                "MountainCategoryID": 11,
                "ukHillsDbLongitude": "-4.695353",
                "ukHillsDbLatitude": "56.935344",
                "ukHillsDbName": "Beinn Teallach",
                "ukHillsDbSection": "9.3",
                "urlName": "Beinn_Teallach",
                "Height": 915
            },
            {
                "id": 4,
                "MountainCategoryID": 11,
                "ukHillsDbLongitude": "-4.836569",
                "ukHillsDbLatitude": "56.390226",
                "ukHillsDbName": "Beinn a'Chleibh",
                "ukHillsDbSection": "1.4",
                "urlName": "Beinn_aChleibh",
                "Height": 916
            },
            {
                "id": 5,
                "MountainCategoryID": 12,
                "ukHillsDbLongitude": "-5.259642",
                "ukHillsDbLatitude": "57.745288",
                "ukHillsDbName": "Beinn a'Chlaidheimh",
                "ukHillsDbSection": "14.1",
                "urlName": "Beinn_aChlaidheimh",
                "Height": 916
            },
            {
                "id": 6,
                "MountainCategoryID": 11,
                "ukHillsDbLongitude": "-4.305244",
                "ukHillsDbLatitude": "56.873952",
                "ukHillsDbName": "Geal'charn",
                "ukHillsDbSection": "5.1",
                "urlName": "Gealcharn",
                "Height": 917
            },
            {
                "id": 7,
                "MountainCategoryID": 11,
                "ukHillsDbLongitude": "-3.423256",
                "ukHillsDbLatitude": "56.896101",
                "ukHillsDbName": "Carn Aosda",
                "ukHillsDbSection": "6.2",
                "urlName": "Carn_Aosda",
                "Height": 917
            },
            {
                "id": 8,
                "MountainCategoryID": 11,
                "ukHillsDbLongitude": "-6.233665",
                "ukHillsDbLatitude": "57.230810",
                "ukHillsDbName": "Sgurr a'Mhadaidh",
                "ukHillsDbSection": "17.2",
                "urlName": "Sgurr_aMhadaidh",
                "Height": 918
            },
            {
                "id": 9,
                "MountainCategoryID": 11,
                "ukHillsDbLongitude": "-5.330187",
                "ukHillsDbLatitude": "57.726373",
                "ukHillsDbName": "Ruadh Stac Mor",
                "ukHillsDbSection": "14.1",
                "urlName": "Ruadh_Stac_Mor",
                "Height": 918
            },
            {
                "id": 10,
                "MountainCategoryID": 11,
                "ukHillsDbLongitude": "-4.931339",
                "ukHillsDbLatitude": "56.988454",
                "ukHillsDbName": "Meall na Teanga",
                "ukHillsDbSection": "10.3",
                "urlName": "Meall_na_Teanga",
                "Height": 918
            },
            {
                "id": 11,
                "MountainCategoryID": 11,
                "ukHillsDbLongitude": "-5.335745",
                "ukHillsDbLatitude": "57.146423",
                "ukHillsDbName": "Creag nan Damh",
                "ukHillsDbSection": "10.1",
                "urlName": "Creag_nan_Damh",
                "Height": 918
            },
            {
                "id": 12,
                "MountainCategoryID": 11,
                "ukHillsDbLongitude": "-5.304025",
                "ukHillsDbLatitude": "57.254236",
                "ukHillsDbName": "A Ghlas Bheinn",
                "ukHillsDbSection": "11.1",
                "urlName": "A_Ghlas_Bheinn",
                "Height": 918
            },
            {
                "id": 13,
                "MountainCategoryID": 11,
                "ukHillsDbLongitude": "-5.257302",
                "ukHillsDbLatitude": "57.044211",
                "ukHillsDbName": "Gairich",
                "ukHillsDbSection": "10.2",
                "urlName": "Gairich",
                "Height": 919
            },
            {
                "id": 14,
                "MountainCategoryID": 11,
                "ukHillsDbLongitude": "-4.177043",
                "ukHillsDbLatitude": "57.124268",
                "ukHillsDbName": "Carn Sgulain",
                "ukHillsDbSection": "9.2",
                "urlName": "Carn_Sgulain",
                "Height": 920
            },
            {
                "id": 15,
                "MountainCategoryID": 11,
                "ukHillsDbLongitude": "-4.497111",
                "ukHillsDbLatitude": "56.452354",
                "ukHillsDbName": "Sgiath Chuil",
                "ukHillsDbSection": "2.2",
                "urlName": "Sgiath_Chuil",
                "Height": 921
            },
            {
                "id": 16,
                "MountainCategoryID": 11,
                "ukHillsDbLongitude": "-5.171635",
                "ukHillsDbLatitude": "57.257650",
                "ukHillsDbName": "An Socach",
                "ukHillsDbSection": "11.1",
                "urlName": "An_Socach",
                "Height": 921
            },
            {
                "id": 17,
                "MountainCategoryID": 11,
                "ukHillsDbLongitude": "-5.582894",
                "ukHillsDbLatitude": "57.580123",
                "ukHillsDbName": "Beinn Allgin - Tom na Gruagaich",
                "ukHillsDbSection": "13.1",
                "urlName": "Beinn_Allgin_-_Tom_na_Gruagaich",
                "Height": 922
            },
            {
                "id": 18,
                "MountainCategoryID": 11,
                "ukHillsDbLongitude": "-5.047429",
                "ukHillsDbLatitude": "57.680470",
                "ukHillsDbName": "Sgurr nan Each",
                "ukHillsDbSection": "14.2",
                "urlName": "Sgurr_nan_Each",
                "Height": 923
            },
            {
                "id": 19,
                "MountainCategoryID": 11,
                "ukHillsDbLongitude": "-4.950736",
                "ukHillsDbLatitude": "57.667484",
                "ukHillsDbName": "An Coileachan",
                "ukHillsDbSection": "14.2",
                "urlName": "An_Coileachan",
                "Height": 923
            },
            {
                "id": 20,
                "MountainCategoryID": 11,
                "ukHillsDbLongitude": "-6.211403",
                "ukHillsDbLatitude": "57.195587",
                "ukHillsDbName": "Sgurr nan Eag",
                "ukHillsDbSection": "17.2",
                "urlName": "Sgurr_nan_Eag",
                "Height": 924
            },
            {
                "id": 21,
                "MountainCategoryID": 11,
                "ukHillsDbLongitude": "-4.485811",
                "ukHillsDbLatitude": "56.899246",
                "ukHillsDbName": "Creag Pitridh",
                "ukHillsDbSection": "4.2",
                "urlName": "Creag_Pitridh",
                "Height": 924
            },
            {
                "id": 22,
                "MountainCategoryID": 11,
                "ukHillsDbLongitude": "-4.952326",
                "ukHillsDbLatitude": "56.649995",
                "ukHillsDbName": "Buachaille Etive Beag - Stob Coire Raineach",
                "ukHillsDbSection": "3.2",
                "urlName": "Buachaille_Etive_Beag_-_Stob_Coire_Raineach",
                "Height": 925
            },
            {
                "id": 23,
                "MountainCategoryID": 11,
                "ukHillsDbLongitude": "-4.897964",
                "ukHillsDbLatitude": "57.846653",
                "ukHillsDbName": "Seana Bhraigh",
                "ukHillsDbSection": "15.1",
                "urlName": "Seana_Bhraigh",
                "Height": 926
            },
            {
                "id": 24,
                "MountainCategoryID": 11,
                "ukHillsDbLongitude": "-4.260460",
                "ukHillsDbLatitude": "56.566531",
                "ukHillsDbName": "Meall a'Choire Leith",
                "ukHillsDbSection": "2.2",
                "urlName": "Meall_aChoire_Leith",
                "Height": 926
            },
            {
                "id": 25,
                "MountainCategoryID": 11,
                "ukHillsDbLongitude": "-4.374296",
                "ukHillsDbLatitude": "57.056883",
                "ukHillsDbName": "Geal Charn",
                "ukHillsDbSection": "9.2",
                "urlName": "Geal_Charn",
                "Height": 926
            },
            {
                "id": 26,
                "MountainCategoryID": 11,
                "ukHillsDbLongitude": "-5.400759",
                "ukHillsDbLatitude": "57.511449",
                "ukHillsDbName": "Beinn Liath Mhor",
                "ukHillsDbSection": "13.2",
                "urlName": "Beinn_Liath_Mhor",
                "Height": 926
            },
            {
                "id": 27,
                "MountainCategoryID": 11,
                "ukHillsDbLongitude": "-4.935712",
                "ukHillsDbLatitude": "57.813430",
                "ukHillsDbName": "Eididh nan Clach Geala",
                "ukHillsDbSection": "15.1",
                "urlName": "Eididh_nan_Clach_Geala",
                "Height": 926
            },
            {
                "id": 28,
                "MountainCategoryID": 11,
                "ukHillsDbLongitude": "-4.608707",
                "ukHillsDbLatitude": "58.412754",
                "ukHillsDbName": "Ben Hope",
                "ukHillsDbSection": "16.2",
                "urlName": "Ben_Hope",
                "Height": 927
            },
            {
                "id": 29,
                "MountainCategoryID": 11,
                "ukHillsDbLongitude": "-4.790131",
                "ukHillsDbLatitude": "56.220499",
                "ukHillsDbName": "Beinn Narnain",
                "ukHillsDbSection": "1.4",
                "urlName": "Beinn_Narnain",
                "Height": 927
            },
            {
                "id": 30,
                "MountainCategoryID": 11,
                "ukHillsDbLongitude": "-5.170892",
                "ukHillsDbLatitude": "57.499463",
                "ukHillsDbName": "Moruisg",
                "ukHillsDbSection": "12.1",
                "urlName": "Moruisg",
                "Height": 928
            },
            {
                "id": 31,
                "MountainCategoryID": 11,
                "ukHillsDbLongitude": "-4.943775",
                "ukHillsDbLatitude": "56.561210",
                "ukHillsDbName": "Meall nan Eun",
                "ukHillsDbSection": "3.3",
                "urlName": "Meall_nan_Eun",
                "Height": 928
            },
            {
                "id": 32,
                "MountainCategoryID": 11,
                "ukHillsDbLongitude": "-3.247648",
                "ukHillsDbLatitude": "56.848563",
                "ukHillsDbName": "Mayar",
                "ukHillsDbSection": "7.1",
                "urlName": "Mayar",
                "Height": 928
            },
            {
                "id": 33,
                "MountainCategoryID": 11,
                "ukHillsDbLongitude": "-6.094748",
                "ukHillsDbLatitude": "57.219236",
                "ukHillsDbName": "Bla Bheinn (Blaven)",
                "ukHillsDbSection": "17.2",
                "urlName": "Bla_Bheinn_(Blaven)",
                "Height": 928
            },
            {
                "id": 34,
                "MountainCategoryID": 11,
                "ukHillsDbLongitude": "-4.179447",
                "ukHillsDbLatitude": "57.108950",
                "ukHillsDbName": "A'Chailleach",
                "ukHillsDbSection": "9.2",
                "urlName": "AChailleach",
                "Height": 930
            },
            {
                "id": 35,
                "MountainCategoryID": 11,
                "ukHillsDbLongitude": "-3.992455",
                "ukHillsDbLatitude": "56.453396",
                "ukHillsDbName": "Ben Chonzie",
                "ukHillsDbSection": "1.1",
                "urlName": "Ben_Chonzie",
                "Height": 931
            },
            {
                "id": 36,
                "MountainCategoryID": 11,
                "ukHillsDbLongitude": "-3.554654",
                "ukHillsDbLatitude": "57.055363",
                "ukHillsDbName": "Beinn Bhreac",
                "ukHillsDbSection": "8.2",
                "urlName": "Beinn_Bhreac",
                "Height": 931
            },
            {
                "id": 37,
                "MountainCategoryID": 11,
                "ukHillsDbLongitude": "-4.449285",
                "ukHillsDbLatitude": "56.616876",
                "ukHillsDbName": "Meall Buidhe",
                "ukHillsDbSection": "2.1",
                "urlName": "Meall_Buidhe",
                "Height": 932
            },
            {
                "id": 38,
                "MountainCategoryID": 11,
                "ukHillsDbLongitude": "-3.422608",
                "ukHillsDbLatitude": "56.879037",
                "ukHillsDbName": "Cairnwell",
                "ukHillsDbSection": "6.2",
                "urlName": "Cairnwell",
                "Height": 933
            },
            {
                "id": 39,
                "MountainCategoryID": 11,
                "ukHillsDbLongitude": "-5.465699",
                "ukHillsDbLatitude": "57.491702",
                "ukHillsDbName": "Maol Chean-dearg",
                "ukHillsDbSection": "13.2",
                "urlName": "Maol_Chean-dearg",
                "Height": 933
            },
            {
                "id": 40,
                "MountainCategoryID": 11,
                "ukHillsDbLongitude": "-5.103553",
                "ukHillsDbLatitude": "57.610795",
                "ukHillsDbName": "Fionn Bheinn",
                "ukHillsDbSection": "14.2",
                "urlName": "Fionn_Bheinn",
                "Height": 933
            },
            {
                "id": 41,
                "MountainCategoryID": 11,
                "ukHillsDbLongitude": "-4.642479",
                "ukHillsDbLatitude": "56.325309",
                "ukHillsDbName": "Beinn Chabhair",
                "ukHillsDbSection": "1.3",
                "urlName": "Beinn_Chabhair",
                "Height": 933
            },
            {
                "id": 42,
                "MountainCategoryID": 11,
                "ukHillsDbLongitude": "-5.050144",
                "ukHillsDbLatitude": "57.712761",
                "ukHillsDbName": "Meall a'Chrasgaidh",
                "ukHillsDbSection": "14.2",
                "urlName": "Meall_aChrasgaidh",
                "Height": 934
            },
            {
                "id": 43,
                "MountainCategoryID": 11,
                "ukHillsDbLongitude": "-6.204116",
                "ukHillsDbLatitude": "57.247992",
                "ukHillsDbName": "Am Basteir",
                "ukHillsDbSection": "17.2",
                "urlName": "Am_Basteir",
                "Height": 934
            },
            {
                "id": 44,
                "MountainCategoryID": 11,
                "ukHillsDbLongitude": "-4.660256",
                "ukHillsDbLatitude": "56.788701",
                "ukHillsDbName": "Beinn na Lap",
                "ukHillsDbSection": "4.2",
                "urlName": "Beinn_na_Lap",
                "Height": 936
            },
            {
                "id": 45,
                "MountainCategoryID": 11,
                "ukHillsDbLongitude": "-4.200008",
                "ukHillsDbLatitude": "56.870459",
                "ukHillsDbName": "A'Bhuidheanach Bheag",
                "ukHillsDbSection": "5.2",
                "urlName": "ABhuidheanach_Bheag",
                "Height": 937
            },
            {
                "id": 46,
                "MountainCategoryID": 11,
                "ukHillsDbLongitude": "-4.929533",
                "ukHillsDbLatitude": "57.007372",
                "ukHillsDbName": "Sron a'Choire Ghairbh",
                "ukHillsDbSection": "10.3",
                "urlName": "Sron_aChoire_Ghairbh",
                "Height": 937
            },
            {
                "id": 47,
                "MountainCategoryID": 11,
                "ukHillsDbLongitude": "-5.292704",
                "ukHillsDbLatitude": "57.702185",
                "ukHillsDbName": "Beinn Tarsuinn",
                "ukHillsDbSection": "14.1",
                "urlName": "Beinn_Tarsuinn",
                "Height": 937
            },
            {
                "id": 48,
                "MountainCategoryID": 11,
                "ukHillsDbLongitude": "-5.170420",
                "ukHillsDbLatitude": "56.565520",
                "ukHillsDbName": "Beinn Sgulaird",
                "ukHillsDbSection": "3.2",
                "urlName": "Beinn_Sgulaird",
                "Height": 937
            },
            {
                "id": 49,
                "MountainCategoryID": 11,
                "ukHillsDbLongitude": "-5.073025",
                "ukHillsDbLatitude": "56.749546",
                "ukHillsDbName": "Mullach nan Coirean",
                "ukHillsDbSection": "4.1",
                "urlName": "Mullach_nan_Coirean",
                "Height": 939
            },
            {
                "id": 50,
                "MountainCategoryID": 11,
                "ukHillsDbLongitude": "-2.973700",
                "ukHillsDbLatitude": "56.969589",
                "ukHillsDbName": "Mount Keen",
                "ukHillsDbSection": "7.2",
                "urlName": "Mount_Keen",
                "Height": 939
            },
            {
                "id": 51,
                "MountainCategoryID": 11,
                "ukHillsDbLongitude": "-5.514948",
                "ukHillsDbLatitude": "57.048027",
                "ukHillsDbName": "Luinne Bheinne",
                "ukHillsDbSection": "10.2",
                "urlName": "Luinne_Bheinne",
                "Height": 939
            },
            {
                "id": 52,
                "MountainCategoryID": 11,
                "ukHillsDbLongitude": "-4.599293",
                "ukHillsDbLatitude": "56.332514",
                "ukHillsDbName": "Beinn a'Chroin",
                "ukHillsDbSection": "1.3",
                "urlName": "Beinn_aChroin",
                "Height": 940
            },
            {
                "id": 53,
                "MountainCategoryID": 11,
                "ukHillsDbLongitude": "-4.174487",
                "ukHillsDbLatitude": "56.911343",
                "ukHillsDbName": "Carn na Caim",
                "ukHillsDbSection": "5.2",
                "urlName": "Carn_na_Caim",
                "Height": 941
            },
            {
                "id": 54,
                "MountainCategoryID": 11,
                "ukHillsDbLongitude": "-4.591109",
                "ukHillsDbLatitude": "56.759600",
                "ukHillsDbName": "Carn Dearg",
                "ukHillsDbSection": "4.2",
                "urlName": "Carn_Dearg_3",
                "Height": 941
            },
            {
                "id": 55,
                "MountainCategoryID": 11,
                "ukHillsDbLongitude": "-4.912399",
                "ukHillsDbLatitude": "56.766887",
                "ukHillsDbName": "BinneanBeag",
                "ukHillsDbSection": "4.1",
                "urlName": "BinneanBeag",
                "Height": 943
            },
            {
                "id": 56,
                "MountainCategoryID": 11,
                "ukHillsDbLongitude": "-4.755212",
                "ukHillsDbLatitude": "56.273415",
                "ukHillsDbName": "Ben Vorlich",
                "ukHillsDbSection": "1.4",
                "urlName": "Ben_Vorlich",
                "Height": 943
            },
            {
                "id": 57,
                "MountainCategoryID": 11,
                "ukHillsDbLongitude": "-6.212425",
                "ukHillsDbLatitude": "57.204546",
                "ukHillsDbName": "Sgurr Dubh Mor",
                "ukHillsDbSection": "17.2",
                "urlName": "Sgurr_Dubh_Mor",
                "Height": 944
            },
            {
                "id": 58,
                "MountainCategoryID": 11,
                "ukHillsDbLongitude": "-3.513766",
                "ukHillsDbLatitude": "56.901326",
                "ukHillsDbName": "An Socach - west",
                "ukHillsDbSection": "6.2",
                "urlName": "An_Socach_-_west",
                "Height": 944
            },
            {
                "id": 59,
                "MountainCategoryID": 11,
                "ukHillsDbLongitude": "-4.838821",
                "ukHillsDbLatitude": "56.572640",
                "ukHillsDbName": "Stob a'Choire Odhair",
                "ukHillsDbSection": "3.3",
                "urlName": "Stob_aChoire_Odhair",
                "Height": 945
            },
            {
                "id": 60,
                "MountainCategoryID": 11,
                "ukHillsDbLongitude": "-4.254352",
                "ukHillsDbLatitude": "57.091450",
                "ukHillsDbName": "Carn Dearg",
                "ukHillsDbSection": "9.2",
                "urlName": "Carn_Dearg_2",
                "Height": 945
            },
            {
                "id": 61,
                "MountainCategoryID": 11,
                "ukHillsDbLongitude": "-5.250579",
                "ukHillsDbLatitude": "57.419230",
                "ukHillsDbName": "Bidean a'Choire Sheasgaich",
                "ukHillsDbSection": "12.1",
                "urlName": "Bidean_aChoire_Sheasgaich",
                "Height": 945
            },
            {
                "id": 62,
                "MountainCategoryID": 11,
                "ukHillsDbLongitude": "-5.396949",
                "ukHillsDbLatitude": "57.146577",
                "ukHillsDbName": "Sgurr na Sgine",
                "ukHillsDbSection": "10.1",
                "urlName": "Sgurr_na_Sgine",
                "Height": 945
            },
            {
                "id": 63,
                "MountainCategoryID": 11,
                "ukHillsDbLongitude": "-5.546310",
                "ukHillsDbLatitude": "57.030959",
                "ukHillsDbName": "Meall Buidhe",
                "ukHillsDbSection": "10.2",
                "urlName": "Meall_Buidhe_2",
                "Height": 946
            },
            {
                "id": 64,
                "MountainCategoryID": 11,
                "ukHillsDbLongitude": "-3.560955",
                "ukHillsDbLatitude": "56.930396",
                "ukHillsDbName": "Carn Bhac",
                "ukHillsDbSection": "6.2",
                "urlName": "Carn_Bhac",
                "Height": 946
            },
            {
                "id": 65,
                "MountainCategoryID": 11,
                "ukHillsDbLongitude": "-4.564350",
                "ukHillsDbLatitude": "56.342230",
                "ukHillsDbName": "Beinn Tulaichean",
                "ukHillsDbSection": "1.3",
                "urlName": "Beinn_Tulaichean",
                "Height": 946
            },
            {
                "id": 66,
                "MountainCategoryID": 11,
                "ukHillsDbLongitude": "-3.196778",
                "ukHillsDbLatitude": "56.847264",
                "ukHillsDbName": "Driesh",
                "ukHillsDbSection": "7.1",
                "urlName": "Driesh",
                "Height": 947
            },
            {
                "id": 67,
                "MountainCategoryID": 11,
                "ukHillsDbLongitude": "-5.161534",
                "ukHillsDbLatitude": "57.120376",
                "ukHillsDbName": "Creag a Mhaim",
                "ukHillsDbSection": "10.1",
                "urlName": "Creag_a_Mhaim",
                "Height": 947
            },
            {
                "id": 68,
                "MountainCategoryID": 11,
                "ukHillsDbLongitude": "-6.224493",
                "ukHillsDbLatitude": "57.208636",
                "ukHillsDbName": "Sgurr Mhic Choinnich",
                "ukHillsDbSection": "17.2",
                "urlName": "Sgurr_Mhic_Choinnich",
                "Height": 948
            },
            {
                "id": 69,
                "MountainCategoryID": 11,
                "ukHillsDbLongitude": "-4.907879",
                "ukHillsDbLatitude": "56.326551",
                "ukHillsDbName": "Beinn Bhuidhe",
                "ukHillsDbSection": "1.4",
                "urlName": "Beinn_Bhuidhe",
                "Height": 948
            },
            {
                "id": 70,
                "MountainCategoryID": 11,
                "ukHillsDbLongitude": "-4.985396",
                "ukHillsDbLatitude": "57.681051",
                "ukHillsDbName": "Meall Gorm",
                "ukHillsDbSection": "14.2",
                "urlName": "Meall_Gorm",
                "Height": 949
            },
            {
                "id": 71,
                "MountainCategoryID": 11,
                "ukHillsDbLongitude": "-4.113377",
                "ukHillsDbLatitude": "56.963612",
                "ukHillsDbName": "Meall Chuaich",
                "ukHillsDbSection": "5.2",
                "urlName": "Meall_Chuaich",
                "Height": 951
            },
            {
                "id": 72,
                "MountainCategoryID": 11,
                "ukHillsDbLongitude": "-5.405623",
                "ukHillsDbLatitude": "57.007000",
                "ukHillsDbName": "Sgurr nan Coireachan",
                "ukHillsDbSection": "10.2",
                "urlName": "Sgurr_nan_Coireachan",
                "Height": 953
            },
            {
                "id": 73,
                "MountainCategoryID": 11,
                "ukHillsDbLongitude": "-5.003684",
                "ukHillsDbLatitude": "56.680226",
                "ukHillsDbName": "Aonach Eagach - Meall Dearg",
                "ukHillsDbSection": "3.1",
                "urlName": "Aonach_Eagach_-_Meall_Dearg",
                "Height": 953
            },
            {
                "id": 74,
                "MountainCategoryID": 11,
                "ukHillsDbLongitude": "-4.647224",
                "ukHillsDbLatitude": "56.533728",
                "ukHillsDbName": "Beinn Mhanach",
                "ukHillsDbSection": "2.1",
                "urlName": "Beinn_Mhanach",
                "Height": 953
            },
            {
                "id": 75,
                "MountainCategoryID": 11,
                "ukHillsDbLongitude": "-4.854914",
                "ukHillsDbLatitude": "57.771239",
                "ukHillsDbName": "Am Faochagach",
                "ukHillsDbSection": "15.1",
                "urlName": "Am_Faochagach",
                "Height": 954
            },
            {
                "id": 76,
                "MountainCategoryID": 11,
                "ukHillsDbLongitude": "-4.990816",
                "ukHillsDbLatitude": "57.706088",
                "ukHillsDbName": "Beinn Liath Mhor",
                "ukHillsDbSection": "14.2",
                "urlName": "Beinn_Liath_Mhor_2",
                "Height": 954
            },
            {
                "id": 77,
                "MountainCategoryID": 11,
                "ukHillsDbLongitude": "-4.547782",
                "ukHillsDbLatitude": "56.772177",
                "ukHillsDbName": "Sgor Gaibhre",
                "ukHillsDbSection": "4.2",
                "urlName": "Sgor_Gaibhre",
                "Height": 955
            },
            {
                "id": 78,
                "MountainCategoryID": 11,
                "ukHillsDbLongitude": "-5.450091",
                "ukHillsDbLatitude": "56.935659",
                "ukHillsDbName": "Sgurr nan Coireachan",
                "ukHillsDbSection": "10.4",
                "urlName": "Sgurr_nan_Coireachan_2",
                "Height": 956
            },
            {
                "id": 79,
                "MountainCategoryID": 11,
                "ukHillsDbLongitude": "-5.282590",
                "ukHillsDbLatitude": "57.181087",
                "ukHillsDbName": "Saileag",
                "ukHillsDbSection": "11.1",
                "urlName": "Saileag",
                "Height": 956
            },
            {
                "id": 80,
                "MountainCategoryID": 11,
                "ukHillsDbLongitude": "-4.952341",
                "ukHillsDbLatitude": "56.629320",
                "ukHillsDbName": "Buachaille Etive Mor - Stob na Broige",
                "ukHillsDbSection": "3.2",
                "urlName": "Buachaille_Etive_Mor_-_Stob_na_Broige",
                "Height": 956
            },
            {
                "id": 81,
                "MountainCategoryID": 11,
                "ukHillsDbLongitude": "-3.293452",
                "ukHillsDbLatitude": "56.893019",
                "ukHillsDbName": "Tom Buidhe",
                "ukHillsDbSection": "7.1",
                "urlName": "Tom_Buidhe",
                "Height": 957
            },
            {
                "id": 82,
                "MountainCategoryID": 11,
                "ukHillsDbLongitude": "-5.069453",
                "ukHillsDbLatitude": "57.165811",
                "ukHillsDbName": "Carn Ghluasaid",
                "ukHillsDbSection": "11.2",
                "urlName": "Carn_Ghluasaid",
                "Height": 957
            },
            {
                "id": 83,
                "MountainCategoryID": 11,
                "ukHillsDbLongitude": "-3.298780",
                "ukHillsDbLatitude": "56.904644",
                "ukHillsDbName": "Tolmount",
                "ukHillsDbSection": "7.1",
                "urlName": "Tolmount",
                "Height": 958
            },
            {
                "id": 84,
                "MountainCategoryID": 11,
                "ukHillsDbLongitude": "-4.970952",
                "ukHillsDbLatitude": "56.637866",
                "ukHillsDbName": "Buachaille Etive Beag",
                "ukHillsDbSection": "3.2",
                "urlName": "Buachaille_Etive_Beag",
                "Height": 958
            },
            {
                "id": 85,
                "MountainCategoryID": 11,
                "ukHillsDbLongitude": "-6.210625",
                "ukHillsDbLatitude": "57.246874",
                "ukHillsDbName": "Bruach na Frithe",
                "ukHillsDbSection": "17.2",
                "urlName": "Bruach_na_Frithe",
                "Height": 958
            },
            {
                "id": 86,
                "MountainCategoryID": 11,
                "ukHillsDbLongitude": "-4.547595",
                "ukHillsDbLatitude": "56.454923",
                "ukHillsDbName": "Meall Glas",
                "ukHillsDbSection": "2.2",
                "urlName": "Meall_Glas",
                "Height": 959
            },
            {
                "id": 87,
                "MountainCategoryID": 11,
                "ukHillsDbLongitude": "-5.104900",
                "ukHillsDbLatitude": "56.600435",
                "ukHillsDbName": "Beinn Fhionnlaidh",
                "ukHillsDbSection": "3.2",
                "urlName": "Beinn_Fhionnlaidh",
                "Height": 959
            },
            {
                "id": 88,
                "MountainCategoryID": 11,
                "ukHillsDbLongitude": "-4.470714",
                "ukHillsDbLatitude": "56.570617",
                "ukHillsDbName": "Stuchd an Lochain",
                "ukHillsDbSection": "2.1",
                "urlName": "Stuchd_an_Lochain",
                "Height": 960
            },
            {
                "id": 89,
                "MountainCategoryID": 11,
                "ukHillsDbLongitude": "-5.012127",
                "ukHillsDbLatitude": "56.520020",
                "ukHillsDbName": "Beinn nan Aighenan",
                "ukHillsDbSection": "3.3",
                "urlName": "Beinn_nan_Aighenan",
                "Height": 960
            },
            {
                "id": 90,
                "MountainCategoryID": 11,
                "ukHillsDbLongitude": "-5.407918",
                "ukHillsDbLatitude": "57.498671",
                "ukHillsDbName": "Sgorr Ruadh",
                "ukHillsDbSection": "13.2",
                "urlName": "Sgorr_Ruadh",
                "Height": 961
            },
            {
                "id": 91,
                "MountainCategoryID": 11,
                "ukHillsDbLongitude": "-4.411650",
                "ukHillsDbLatitude": "58.235117",
                "ukHillsDbName": "Ben Klibreck",
                "ukHillsDbSection": "16.4",
                "urlName": "Ben_Klibreck",
                "Height": 962
            },
            {
                "id": 92,
                "MountainCategoryID": 11,
                "ukHillsDbLongitude": "-5.389314",
                "ukHillsDbLatitude": "56.936423",
                "ukHillsDbName": "Sgurr Thuilm",
                "ukHillsDbSection": "10.4",
                "urlName": "Sgurr_Thuilm",
                "Height": 963
            },
            {
                "id": 93,
                "MountainCategoryID": 11,
                "ukHillsDbLongitude": "-3.781143",
                "ukHillsDbLatitude": "56.860961",
                "ukHillsDbName": "Carn a Chlamain",
                "ukHillsDbSection": "6.1",
                "urlName": "Carn_a_Chlamain",
                "Height": 963
            },
            {
                "id": 94,
                "MountainCategoryID": 11,
                "ukHillsDbLongitude": "-6.194098",
                "ukHillsDbLatitude": "57.247428",
                "ukHillsDbName": "Sgurr nan Gillean",
                "ukHillsDbSection": "17.2",
                "urlName": "Sgurr_nan_Gillean",
                "Height": 964
            },
            {
                "id": 95,
                "MountainCategoryID": 11,
                "ukHillsDbLongitude": "-6.242443",
                "ukHillsDbLatitude": "57.220621",
                "ukHillsDbName": "Sgurr na Banachdich",
                "ukHillsDbSection": "17.2",
                "urlName": "Sgurr_na_Banachdich",
                "Height": 965
            },
            {
                "id": 96,
                "MountainCategoryID": 11,
                "ukHillsDbLongitude": "-6.015276",
                "ukHillsDbLatitude": "56.424168",
                "ukHillsDbName": "Ben More",
                "ukHillsDbSection": "17.5",
                "urlName": "Ben_More",
                "Height": 966
            },
            {
                "id": 97,
                "MountainCategoryID": 11,
                "ukHillsDbLongitude": "-5.037911",
                "ukHillsDbLatitude": "56.679395",
                "ukHillsDbName": "Aonach Eagach - Sgorr nam Fiannaidh",
                "ukHillsDbSection": "3.1",
                "urlName": "Aonach_Eagach_-_Sgorr_nam_Fiannaidh",
                "Height": 967
            },
            {
                "id": 98,
                "MountainCategoryID": 11,
                "ukHillsDbLongitude": "-5.348044",
                "ukHillsDbLatitude": "57.719609",
                "ukHillsDbName": "A Mhaighdean",
                "ukHillsDbSection": "14.1",
                "urlName": "A_Mhaighdean",
                "Height": 967
            },
            {
                "id": 99,
                "MountainCategoryID": 11,
                "ukHillsDbLongitude": "-4.207630",
                "ukHillsDbLatitude": "56.637576",
                "ukHillsDbName": "Meall Garbh",
                "ukHillsDbSection": "2.1",
                "urlName": "Meall_Garbh",
                "Height": 968
            },
            {
                "id": 100,
                "MountainCategoryID": 11,
                "ukHillsDbLongitude": "-6.235008",
                "ukHillsDbLatitude": "57.228067",
                "ukHillsDbName": "Sgurr a Ghreadhaidh",
                "ukHillsDbSection": "17.2",
                "urlName": "Sgurr_a_Ghreadhaidh",
                "Height": 972
            },
            {
                "id": 101,
                "MountainCategoryID": 11,
                "ukHillsDbLongitude": "-4.633151",
                "ukHillsDbLatitude": "56.189787",
                "ukHillsDbName": "Ben Lomond",
                "ukHillsDbSection": "1.3",
                "urlName": "Ben_Lomond",
                "Height": 973
            },
            {
                "id": 102,
                "MountainCategoryID": 11,
                "ukHillsDbLongitude": "-5.581167",
                "ukHillsDbLatitude": "57.153136",
                "ukHillsDbName": "Beinn Sgritheall",
                "ukHillsDbSection": "10.1",
                "urlName": "Beinn_Sgritheall",
                "Height": 974
            },
            {
                "id": 103,
                "MountainCategoryID": 11,
                "ukHillsDbLongitude": "-4.238294",
                "ukHillsDbLatitude": "56.328780",
                "ukHillsDbName": "Stuc a Chroin",
                "ukHillsDbSection": "1.2",
                "urlName": "Stuc_a_Chroin",
                "Height": 974
            },
            {
                "id": 104,
                "MountainCategoryID": 11,
                "ukHillsDbLongitude": "-3.744211",
                "ukHillsDbLatitude": "56.807571",
                "ukHillsDbName": "Beinn a'Ghlo - Carn Liath",
                "ukHillsDbSection": "6.2",
                "urlName": "Carn_Liath_1",
                "Height": 975
            },
            {
                "id": 105,
                "MountainCategoryID": 11,
                "ukHillsDbLongitude": "-3.466684",
                "ukHillsDbLatitude": "56.873137",
                "ukHillsDbName": "Carn a'Gheoidh",
                "ukHillsDbSection": "6.2",
                "urlName": "Carn_aGheoidh",
                "Height": 975
            },
            {
                "id": 106,
                "MountainCategoryID": 11,
                "ukHillsDbLongitude": "-4.291031",
                "ukHillsDbLatitude": "56.856241",
                "ukHillsDbName": "A Mharconaich",
                "ukHillsDbSection": "5.1",
                "urlName": "A_Mharconaich",
                "Height": 975
            },
            {
                "id": 107,
                "MountainCategoryID": 11,
                "ukHillsDbLongitude": "-4.841996",
                "ukHillsDbLatitude": "56.809858",
                "ukHillsDbName": "Stob Ban",
                "ukHillsDbSection": "4.1",
                "urlName": "Stob_Ban",
                "Height": 975
            },
            {
                "id": 108,
                "MountainCategoryID": 11,
                "ukHillsDbLongitude": "-4.934472",
                "ukHillsDbLatitude": "57.798180",
                "ukHillsDbName": "Meall nan Ceapraichean",
                "ukHillsDbSection": "15.1",
                "urlName": "Meall_nan_Ceapraichean",
                "Height": 977
            },
            {
                "id": 109,
                "MountainCategoryID": 11,
                "ukHillsDbLongitude": "-4.905261",
                "ukHillsDbLatitude": "57.790765",
                "ukHillsDbName": "Cona Mheall",
                "ukHillsDbSection": "15.1",
                "urlName": "Cona_Mheall",
                "Height": 977
            },
            {
                "id": 110,
                "MountainCategoryID": 11,
                "ukHillsDbLongitude": "-4.744222",
                "ukHillsDbLatitude": "56.390508",
                "ukHillsDbName": "Beinn Dubhchraig",
                "ukHillsDbSection": "1.4",
                "urlName": "Beinn_Dubhchraig",
                "Height": 978
            },
            {
                "id": 111,
                "MountainCategoryID": 11,
                "ukHillsDbLongitude": "-4.696050",
                "ukHillsDbLatitude": "56.831073",
                "ukHillsDbName": "Stob Coire Sgriodain",
                "ukHillsDbSection": "4.2",
                "urlName": "Stob_Coire_Sgriodain",
                "Height": 978
            },
            {
                "id": 112,
                "MountainCategoryID": 11,
                "ukHillsDbLongitude": "-5.209671",
                "ukHillsDbLatitude": "57.199155",
                "ukHillsDbName": "Ciste Dhubh",
                "ukHillsDbSection": "11.1",
                "urlName": "Ciste_Dhubh",
                "Height": 979
            },
            {
                "id": 113,
                "MountainCategoryID": 11,
                "ukHillsDbLongitude": "-5.069835",
                "ukHillsDbLatitude": "56.449390",
                "ukHillsDbName": "Beinn a Chochuill",
                "ukHillsDbSection": "3.3",
                "urlName": "Beinn_a_Chochuill",
                "Height": 979
            },
            {
                "id": 114,
                "MountainCategoryID": 11,
                "ukHillsDbLongitude": "-4.970008",
                "ukHillsDbLatitude": "56.750247",
                "ukHillsDbName": "Stob Coire a Chairn",
                "ukHillsDbSection": "4.1",
                "urlName": "Stob_Coire_a_Chairn",
                "Height": 980
            },
            {
                "id": 115,
                "MountainCategoryID": 11,
                "ukHillsDbLongitude": "-5.348182",
                "ukHillsDbLatitude": "57.666570",
                "ukHillsDbName": "Slioch",
                "ukHillsDbSection": "14.1",
                "urlName": "Slioch",
                "Height": 981
            },
            {
                "id": 116,
                "MountainCategoryID": 11,
                "ukHillsDbLongitude": "-4.129996",
                "ukHillsDbLatitude": "56.620058",
                "ukHillsDbName": "Meall nan Aighean",
                "ukHillsDbSection": "2.1",
                "urlName": "Meall_nan_Aighean",
                "Height": 981
            },
            {
                "id": 117,
                "MountainCategoryID": 11,
                "ukHillsDbLongitude": "-5.253007",
                "ukHillsDbLatitude": "57.127024",
                "ukHillsDbName": "Maol Chinn-dearg",
                "ukHillsDbSection": "10.1",
                "urlName": "Maol_Chinn-dearg",
                "Height": 981
            },
            {
                "id": 118,
                "MountainCategoryID": 11,
                "ukHillsDbLongitude": "-5.187123",
                "ukHillsDbLatitude": "57.283325",
                "ukHillsDbName": "Mullach na Dheiragain",
                "ukHillsDbSection": "11.1",
                "urlName": "Mullach_na_Dheiragain",
                "Height": 981
            },
            {
                "id": 119,
                "MountainCategoryID": 11,
                "ukHillsDbLongitude": "-4.967379",
                "ukHillsDbLatitude": "56.758399",
                "ukHillsDbName": "An Gearanach",
                "ukHillsDbSection": "4.1",
                "urlName": "An_Gearanach",
                "Height": 982
            },
            {
                "id": 120,
                "MountainCategoryID": 11,
                "ukHillsDbLongitude": "-4.219685",
                "ukHillsDbLatitude": "56.342595",
                "ukHillsDbName": "Ben Vorlich",
                "ukHillsDbSection": "1.2",
                "urlName": "Ben_Vorlich_2",
                "Height": 982
            },
            {
                "id": 121,
                "MountainCategoryID": 11,
                "ukHillsDbLongitude": "-6.234912",
                "ukHillsDbLatitude": "57.212782",
                "ukHillsDbName": "Sgurr DeargInaccess",
                "ukHillsDbSection": "17.2",
                "urlName": "Sgurr_DeargInaccess",
                "Height": 985
            },
            {
                "id": 122,
                "MountainCategoryID": 11,
                "ukHillsDbLongitude": "-5.223352",
                "ukHillsDbLatitude": "57.412739",
                "ukHillsDbName": "Lurg Mhor",
                "ukHillsDbSection": "12.1",
                "urlName": "Lurg_Mhor",
                "Height": 986
            },
            {
                "id": 123,
                "MountainCategoryID": 11,
                "ukHillsDbLongitude": "-5.573936",
                "ukHillsDbLatitude": "57.591165",
                "ukHillsDbName": "Sgurr MhorBeinnAlligin",
                "ukHillsDbSection": "13.1",
                "urlName": "Sgurr_MhorBeinnAlligin",
                "Height": 986
            },
            {
                "id": 124,
                "MountainCategoryID": 11,
                "ukHillsDbLongitude": "-5.285640",
                "ukHillsDbLatitude": "56.935597",
                "ukHillsDbName": "Gulvain",
                "ukHillsDbSection": "10.4",
                "urlName": "Gulvain",
                "Height": 986
            },
            {
                "id": 125,
                "MountainCategoryID": 11,
                "ukHillsDbLongitude": "-5.183509",
                "ukHillsDbLatitude": "57.126112",
                "ukHillsDbName": "DruiShionnach",
                "ukHillsDbSection": "10.1",
                "urlName": "DruiShionnach",
                "Height": 987
            },
            {
                "id": 126,
                "MountainCategoryID": 11,
                "ukHillsDbLongitude": "-3.388869",
                "ukHillsDbLatitude": "56.854260",
                "ukHillsDbName": "Creag Leachach",
                "ukHillsDbSection": "7.1",
                "urlName": "Creag_Leachach",
                "Height": 987
            },
            {
                "id": 127,
                "MountainCategoryID": 11,
                "ukHillsDbLongitude": "-4.884022",
                "ukHillsDbLatitude": "58.135452",
                "ukHillsDbName": "Conival",
                "ukHillsDbSection": "16.5",
                "urlName": "Conival",
                "Height": 987
            },
            {
                "id": 128,
                "MountainCategoryID": 11,
                "ukHillsDbLongitude": "-5.267276",
                "ukHillsDbLatitude": "57.718125",
                "ukHillsDbName": "Sgurr BanLetterewe",
                "ukHillsDbSection": "14.1",
                "urlName": "Sgurr_BanLetterewe",
                "Height": 987
            },
            {
                "id": 129,
                "MountainCategoryID": 11,
                "ukHillsDbLongitude": "-5.027715",
                "ukHillsDbLatitude": "56.450425",
                "ukHillsDbName": "Beinn Eunaich",
                "ukHillsDbSection": "3.3",
                "urlName": "Beinn_Eunaich",
                "Height": 989
            },
            {
                "id": 130,
                "MountainCategoryID": 11,
                "ukHillsDbLongitude": "-4.299155",
                "ukHillsDbLatitude": "56.828233",
                "ukHillsDbName": "SgairneachMhor",
                "ukHillsDbSection": "5.1",
                "urlName": "SgairneachMhor",
                "Height": 989
            },
            {
                "id": 131,
                "MountainCategoryID": 11,
                "ukHillsDbLongitude": "-6.224185",
                "ukHillsDbLatitude": "57.205949",
                "ukHillsDbName": "Sgurr Alasdair",
                "ukHillsDbSection": "17.2",
                "urlName": "Sgurr_Alasdair",
                "Height": 991
            },
            {
                "id": 132,
                "MountainCategoryID": 11,
                "ukHillsDbLongitude": "-4.880033",
                "ukHillsDbLatitude": "57.452517",
                "ukHillsDbName": "Carn nanGobharGlenStr",
                "ukHillsDbSection": "12.1",
                "urlName": "Carn_nanGobharGlenStr",
                "Height": 992
            },
            {
                "id": 133,
                "MountainCategoryID": 11,
                "ukHillsDbLongitude": "-5.026017",
                "ukHillsDbLatitude": "57.362810",
                "ukHillsDbName": "Carn nanGobharGlenCan",
                "ukHillsDbSection": "12.2",
                "urlName": "Carn_nanGobharGlenCan",
                "Height": 992
            },
            {
                "id": 134,
                "MountainCategoryID": 11,
                "ukHillsDbLongitude": "-4.854159",
                "ukHillsDbLatitude": "57.441423",
                "ukHillsDbName": "Sgurr naRuaidhe",
                "ukHillsDbSection": "12.1",
                "urlName": "Sgurr_naRuaidhe",
                "Height": 992
            },
            {
                "id": 135,
                "MountainCategoryID": 11,
                "ukHillsDbLongitude": "-5.403949",
                "ukHillsDbLatitude": "57.581480",
                "ukHillsDbName": "SpideanCoirenanClach",
                "ukHillsDbSection": "13.1",
                "urlName": "SpideanCoirenanClach",
                "Height": 993
            },
            {
                "id": 136,
                "MountainCategoryID": 11,
                "ukHillsDbLongitude": "-5.080412",
                "ukHillsDbLatitude": "56.619922",
                "ukHillsDbName": "Sgor nahUlaidh",
                "ukHillsDbSection": "3.2",
                "urlName": "Sgor_nahUlaidh",
                "Height": 994
            },
            {
                "id": 137,
                "MountainCategoryID": 11,
                "ukHillsDbLongitude": "-3.802805",
                "ukHillsDbLatitude": "56.936127",
                "ukHillsDbName": "Carn anFhidhleir",
                "ukHillsDbSection": "6.1",
                "urlName": "Carn_anFhidhleir",
                "Height": 994
            },
            {
                "id": 138,
                "MountainCategoryID": 11,
                "ukHillsDbLongitude": "-4.625574",
                "ukHillsDbLatitude": "56.338251",
                "ukHillsDbName": "An Caisteal",
                "ukHillsDbSection": "1.3",
                "urlName": "An_Caisteal",
                "Height": 995
            },
            {
                "id": 139,
                "MountainCategoryID": 11,
                "ukHillsDbLongitude": "-5.193535",
                "ukHillsDbLatitude": "57.089002",
                "ukHillsDbName": "SpideanMialach",
                "ukHillsDbSection": "10.1",
                "urlName": "SpideanMialach",
                "Height": 996
            },
            {
                "id": 140,
                "MountainCategoryID": 11,
                "ukHillsDbLongitude": "-5.005719",
                "ukHillsDbLatitude": "56.541749",
                "ukHillsDbName": "Glas BheinnMhor",
                "ukHillsDbSection": "3.3",
                "urlName": "Glas_BheinnMhor",
                "Height": 997
            },
            {
                "id": 141,
                "MountainCategoryID": 11,
                "ukHillsDbLongitude": "-5.129114",
                "ukHillsDbLatitude": "57.693754",
                "ukHillsDbName": "A Chailleach",
                "ukHillsDbSection": "14.2",
                "urlName": "A_Chailleach",
                "Height": 997
            },
            {
                "id": 142,
                "MountainCategoryID": 11,
                "ukHillsDbLongitude": "-5.092674",
                "ukHillsDbLatitude": "56.430844",
                "ukHillsDbName": "Stob Diamh",
                "ukHillsDbSection": "3.3",
                "urlName": "Stob_Diamh",
                "Height": 998
            },
            {
                "id": 143,
                "MountainCategoryID": 11,
                "ukHillsDbLongitude": "-3.249984",
                "ukHillsDbLatitude": "56.918618",
                "ukHillsDbName": "Broad Cairn",
                "ukHillsDbSection": "7.1",
                "urlName": "Broad_Cairn",
                "Height": 998
            },
            {
                "id": 144,
                "MountainCategoryID": 11,
                "ukHillsDbLongitude": "-4.858724",
                "ukHillsDbLatitude": "58.137820",
                "ukHillsDbName": "Ben MoreAssynt",
                "ukHillsDbSection": "16.5",
                "urlName": "Ben_MoreAssynt",
                "Height": 998
            },
            {
                "id": 145,
                "MountainCategoryID": 11,
                "ukHillsDbLongitude": "-5.031625",
                "ukHillsDbLatitude": "56.743369",
                "ukHillsDbName": "Stob Ban",
                "ukHillsDbSection": "4.1",
                "urlName": "Stob_Ban_2",
                "Height": 999
            },
            {
                "id": 146,
                "MountainCategoryID": 11,
                "ukHillsDbLongitude": "-5.208368",
                "ukHillsDbLatitude": "57.450875",
                "ukHillsDbName": "Sgurr Choinnich",
                "ukHillsDbSection": "12.1",
                "urlName": "Sgurr_Choinnich",
                "Height": 999
            },
            {
                "id": 147,
                "MountainCategoryID": 11,
                "ukHillsDbLongitude": "-5.092034",
                "ukHillsDbLatitude": "57.691970",
                "ukHillsDbName": "Sgurr Breac",
                "ukHillsDbSection": "14.2",
                "urlName": "Sgurr_Breac",
                "Height": 999
            },
            {
                "id": 148,
                "MountainCategoryID": 11,
                "ukHillsDbLongitude": "-4.159591",
                "ukHillsDbLatitude": "56.567425",
                "ukHillsDbName": "Meall Greigh",
                "ukHillsDbSection": "2.2",
                "urlName": "Meall_Greigh",
                "Height": 1001
            },
            {
                "id": 149,
                "MountainCategoryID": 11,
                "ukHillsDbLongitude": "-5.198743",
                "ukHillsDbLatitude": "56.650195",
                "ukHillsDbName": "Sgorr DhonuillBeinnaB",
                "ukHillsDbSection": "3.2",
                "urlName": "Sgorr_DhonuillBeinnaB",
                "Height": 1001
            },
            {
                "id": 150,
                "MountainCategoryID": 11,
                "ukHillsDbLongitude": "-5.228879",
                "ukHillsDbLatitude": "57.172593",
                "ukHillsDbName": "AonachMheadhoin",
                "ukHillsDbSection": "11.1",
                "urlName": "AonachMheadhoin",
                "Height": 1001
            },
            {
                "id": 151,
                "MountainCategoryID": 11,
                "ukHillsDbLongitude": "-5.349457",
                "ukHillsDbLatitude": "57.188308",
                "ukHillsDbName": "Sgurr na Carnach",
                "ukHillsDbSection": "11.1",
                "urlName": "Sgurr_na_Carnach",
                "Height": 1002
            },
            {
                "id": 152,
                "MountainCategoryID": 11,
                "ukHillsDbLongitude": "-5.091439",
                "ukHillsDbLatitude": "57.191337",
                "ukHillsDbName": "Sail Chaorainn",
                "ukHillsDbSection": "11.2",
                "urlName": "Sail_Chaorainn",
                "Height": 1002
            },
            {
                "id": 153,
                "MountainCategoryID": 11,
                "ukHillsDbLongitude": "-5.354805",
                "ukHillsDbLatitude": "57.028151",
                "ukHillsDbName": "Sgurr Mor",
                "ukHillsDbSection": "10.2",
                "urlName": "Sgurr_Mor",
                "Height": 1003
            },
            {
                "id": 154,
                "MountainCategoryID": 11,
                "ukHillsDbLongitude": "-3.688965",
                "ukHillsDbLatitude": "57.035654",
                "ukHillsDbName": "Devils Point",
                "ukHillsDbSection": "8.1",
                "urlName": "Devils_Point",
                "Height": 1004
            },
            {
                "id": 155,
                "MountainCategoryID": 11,
                "ukHillsDbLongitude": "-5.298888",
                "ukHillsDbLatitude": "57.141106",
                "ukHillsDbName": "Sgurr an Lochain",
                "ukHillsDbSection": "10.1",
                "urlName": "Sgurr_an_Lochain",
                "Height": 1004
            },
            {
                "id": 156,
                "MountainCategoryID": 11,
                "ukHillsDbLongitude": "-4.715241",
                "ukHillsDbLatitude": "56.529563",
                "ukHillsDbName": "Beinn an Dothaidh",
                "ukHillsDbSection": "2.1",
                "urlName": "Beinn_an_Dothaidh",
                "Height": 1004
            },
            {
                "id": 157,
                "MountainCategoryID": 11,
                "ukHillsDbLongitude": "-5.130907",
                "ukHillsDbLatitude": "57.305413",
                "ukHillsDbName": "Beinn Fhionnlaidh",
                "ukHillsDbSection": "11.1",
                "urlName": "Beinn_Fhionnlaidh_2",
                "Height": 1005
            },
            {
                "id": 158,
                "MountainCategoryID": 11,
                "ukHillsDbLongitude": "-4.515788",
                "ukHillsDbLatitude": "56.978630",
                "ukHillsDbName": "Carn Liath",
                "ukHillsDbSection": "9.3",
                "urlName": "Carn_Liath_2",
                "Height": 1006
            },
            {
                "id": 159,
                "MountainCategoryID": 11,
                "ukHillsDbLongitude": "-3.754918",
                "ukHillsDbLatitude": "56.931418",
                "ukHillsDbName": "An Sgarsoch",
                "ukHillsDbSection": "6.1",
                "urlName": "An_Sgarsoch",
                "Height": 1006
            },
            {
                "id": 160,
                "MountainCategoryID": 11,
                "ukHillsDbLongitude": "-5.111115",
                "ukHillsDbLatitude": "57.464100",
                "ukHillsDbName": "Maoile Lunndaidh",
                "ukHillsDbSection": "12.1",
                "urlName": "Maoile_Lunndaidh",
                "Height": 1007
            },
            {
                "id": 161,
                "MountainCategoryID": 11,
                "ukHillsDbLongitude": "-3.885268",
                "ukHillsDbLatitude": "56.876505",
                "ukHillsDbName": "Beinn Dearg",
                "ukHillsDbSection": "6.1",
                "urlName": "Beinn_Dearg",
                "Height": 1008
            },
            {
                "id": 162,
                "MountainCategoryID": 11,
                "ukHillsDbLongitude": "-5.414935",
                "ukHillsDbLatitude": "57.162270",
                "ukHillsDbName": "The Saddle",
                "ukHillsDbSection": "10.1",
                "urlName": "The_Saddle",
                "Height": 1010
            },
            {
                "id": 163,
                "MountainCategoryID": 11,
                "ukHillsDbLongitude": "-4.896312",
                "ukHillsDbLatitude": "56.749285",
                "ukHillsDbName": "Sgurr Eilde Mor",
                "ukHillsDbSection": "4.1",
                "urlName": "Sgurr_Eilde_Mor",
                "Height": 1010
            },
            {
                "id": 164,
                "MountainCategoryID": 11,
                "ukHillsDbLongitude": "-5.281994",
                "ukHillsDbLatitude": "57.137055",
                "ukHillsDbName": "Sgurr an Doire Leathain",
                "ukHillsDbSection": "10.1",
                "urlName": "Sgurr_an_Doire_Leathain",
                "Height": 1010
            },
            {
                "id": 165,
                "MountainCategoryID": 11,
                "ukHillsDbLongitude": "-5.430172",
                "ukHillsDbLatitude": "57.593356",
                "ukHillsDbName": "Beinn Eighe Ruadhstac Mor",
                "ukHillsDbSection": "13.1",
                "urlName": "Beinn_Eighe_Ruadhstac_Mor",
                "Height": 1010
            },
            {
                "id": 166,
                "MountainCategoryID": 11,
                "ukHillsDbLongitude": "-4.330709",
                "ukHillsDbLatitude": "56.834837",
                "ukHillsDbName": "Beinn Udlamain",
                "ukHillsDbSection": "5.1",
                "urlName": "Beinn_Udlamain",
                "Height": 1010
            },
            {
                "id": 167,
                "MountainCategoryID": 11,
                "ukHillsDbLongitude": "-4.817087",
                "ukHillsDbLatitude": "56.236067",
                "ukHillsDbName": "Ben Ime",
                "ukHillsDbSection": "1.4",
                "urlName": "Ben_Ime",
                "Height": 1011
            },
            {
                "id": 168,
                "MountainCategoryID": 11,
                "ukHillsDbLongitude": "-3.279850",
                "ukHillsDbLatitude": "56.927300",
                "ukHillsDbName": "Cairn Bannoch",
                "ukHillsDbSection": "7.1",
                "urlName": "Cairn_Bannoch",
                "Height": 1012
            },
            {
                "id": 169,
                "MountainCategoryID": 11,
                "ukHillsDbLongitude": "-5.445315",
                "ukHillsDbLatitude": "57.008610",
                "ukHillsDbName": "Garbh Chioch Mhor",
                "ukHillsDbSection": "10.2",
                "urlName": "Garbh_Chioch_Mhor",
                "Height": 1013
            },
            {
                "id": 170,
                "MountainCategoryID": 11,
                "ukHillsDbLongitude": "-5.271494",
                "ukHillsDbLatitude": "57.709028",
                "ukHillsDbName": "Mullach Coire Mhic Fhearchair",
                "ukHillsDbSection": "14.1",
                "urlName": "Mullach_Coire_Mhic_Fhearchair",
                "Height": 1019
            },
            {
                "id": 171,
                "MountainCategoryID": 11,
                "ukHillsDbLongitude": "-3.841059",
                "ukHillsDbLatitude": "57.011945",
                "ukHillsDbName": "Mullach Clach a Bhlair",
                "ukHillsDbSection": "8.1",
                "urlName": "Mullach_Clach_a_Bhlair",
                "Height": 1019
            },
            {
                "id": 172,
                "MountainCategoryID": 11,
                "ukHillsDbLongitude": "-3.358004",
                "ukHillsDbLatitude": "56.907608",
                "ukHillsDbName": "Carn anTuirc",
                "ukHillsDbSection": "7.1",
                "urlName": "Carn_anTuirc",
                "Height": 1019
            },
            {
                "id": 173,
                "MountainCategoryID": 11,
                "ukHillsDbLongitude": "-4.432586",
                "ukHillsDbLatitude": "56.813121",
                "ukHillsDbName": "Beinn Bheoil",
                "ukHillsDbSection": "4.2",
                "urlName": "Beinn_Bheoil",
                "Height": 1019
            },
            {
                "id": 174,
                "MountainCategoryID": 11,
                "ukHillsDbLongitude": "-5.593394",
                "ukHillsDbLatitude": "57.074568",
                "ukHillsDbName": "Ladhar Bheinn",
                "ukHillsDbSection": "10.2",
                "urlName": "Ladhar_Bheinn",
                "Height": 1020
            },
            {
                "id": 175,
                "MountainCategoryID": 11,
                "ukHillsDbLongitude": "-4.901421",
                "ukHillsDbLatitude": "56.645799",
                "ukHillsDbName": "Buachaille Etive Mor",
                "ukHillsDbSection": "3.2",
                "urlName": "Buachaille_Etive_Mor",
                "Height": 1021
            },
            {
                "id": 176,
                "MountainCategoryID": 11,
                "ukHillsDbLongitude": "-5.223010",
                "ukHillsDbLatitude": "57.124204",
                "ukHillsDbName": "Aonachair Chrith",
                "ukHillsDbSection": "10.1",
                "urlName": "Aonachair_Chrith",
                "Height": 1022
            },
            {
                "id": 177,
                "MountainCategoryID": 11,
                "ukHillsDbLongitude": "-5.492367",
                "ukHillsDbLatitude": "57.561085",
                "ukHillsDbName": "Mullachan Rathain Liath",
                "ukHillsDbSection": "13.1",
                "urlName": "Mullachan_Rathain_Liath",
                "Height": 1023
            },
            {
                "id": 178,
                "MountainCategoryID": 11,
                "ukHillsDbLongitude": "-5.172915",
                "ukHillsDbLatitude": "56.653553",
                "ukHillsDbName": "Sgorr Dhearg - Beinn a'Bheithir",
                "ukHillsDbSection": "3.2",
                "urlName": "Sgorr_Dhearg_-_Beinn_aBheithir",
                "Height": 1024
            },
            {
                "id": 179,
                "MountainCategoryID": 11,
                "ukHillsDbLongitude": "-4.620593",
                "ukHillsDbLatitude": "56.454301",
                "ukHillsDbName": "Ben Challum",
                "ukHillsDbSection": "2.2",
                "urlName": "Ben_Challum",
                "Height": 1025
            },
            {
                "id": 180,
                "MountainCategoryID": 11,
                "ukHillsDbLongitude": "-5.337166",
                "ukHillsDbLatitude": "57.180545",
                "ukHillsDbName": "Sgurr na Ciste Duibhe",
                "ukHillsDbSection": "11.1",
                "urlName": "Sgurr_na_Ciste_Duibhe",
                "Height": 1027
            },
            {
                "id": 181,
                "MountainCategoryID": 11,
                "ukHillsDbLongitude": "-5.332034",
                "ukHillsDbLatitude": "57.105170",
                "ukHillsDbName": "Sgurr a'Mhaoraich",
                "ukHillsDbSection": "10.1",
                "urlName": "Sgurr_aMhaoraich",
                "Height": 1027
            },
            {
                "id": 182,
                "MountainCategoryID": 11,
                "ukHillsDbLongitude": "-4.226280",
                "ukHillsDbLatitude": "56.621966",
                "ukHillsDbName": "Carn Gorm",
                "ukHillsDbSection": "2.1",
                "urlName": "Carn_Gorm",
                "Height": 1029
            },
            {
                "id": 183,
                "MountainCategoryID": 11,
                "ukHillsDbLongitude": "-3.596431",
                "ukHillsDbLatitude": "56.876038",
                "ukHillsDbName": "Carn an Righ",
                "ukHillsDbSection": "6.2",
                "urlName": "Carn_an_Righ",
                "Height": 1029
            },
            {
                "id": 184,
                "MountainCategoryID": 11,
                "ukHillsDbLongitude": "-4.776514",
                "ukHillsDbLatitude": "56.388890",
                "ukHillsDbName": "Ben Oss",
                "ukHillsDbSection": "1.4",
                "urlName": "Ben_Oss",
                "Height": 1029
            },
            {
                "id": 185,
                "MountainCategoryID": 11,
                "ukHillsDbLongitude": "-5.284443",
                "ukHillsDbLatitude": "57.220591",
                "ukHillsDbName": "Beinn Fhada",
                "ukHillsDbSection": "11.1",
                "urlName": "Beinn_Fhada",
                "Height": 1032
            },
            {
                "id": 186,
                "MountainCategoryID": 11,
                "ukHillsDbLongitude": "-4.983993",
                "ukHillsDbLatitude": "56.740924",
                "ukHillsDbName": "Am Bodach",
                "ukHillsDbSection": "4.1",
                "urlName": "Am_Bodach",
                "Height": 1032
            },
            {
                "id": 187,
                "MountainCategoryID": 11,
                "ukHillsDbLongitude": "-4.454983",
                "ukHillsDbLatitude": "56.854921",
                "ukHillsDbName": "Carn Dearg",
                "ukHillsDbSection": "4.2",
                "urlName": "Carn_Dearg",
                "Height": 1034
            },
            {
                "id": 188,
                "MountainCategoryID": 11,
                "ukHillsDbLongitude": "-5.238798",
                "ukHillsDbLatitude": "57.096829",
                "ukHillsDbName": "Gleouraich",
                "ukHillsDbSection": "10.1",
                "urlName": "Gleouraich",
                "Height": 1035
            },
            {
                "id": 189,
                "MountainCategoryID": 11,
                "ukHillsDbLongitude": "-5.252468",
                "ukHillsDbLatitude": "57.177377",
                "ukHillsDbName": "Sgurr a Bhealaich Dheirg",
                "ukHillsDbSection": "11.1",
                "urlName": "Sgurr_a_Bhealaich_Dheirg",
                "Height": 1036
            },
            {
                "id": 190,
                "MountainCategoryID": 11,
                "ukHillsDbLongitude": "-3.659319",
                "ukHillsDbLatitude": "57.036050",
                "ukHillsDbName": "Carn a'Mhaim",
                "ukHillsDbSection": "8.1",
                "urlName": "Carn_aMhaim",
                "Height": 1037
            },
            {
                "id": 191,
                "MountainCategoryID": 11,
                "ukHillsDbLongitude": "-4.695661",
                "ukHillsDbLatitude": "56.551561",
                "ukHillsDbName": "Beinn Achaladair",
                "ukHillsDbSection": "2.1",
                "urlName": "Beinn_Achaladair",
                "Height": 1038
            },
            {
                "id": 192,
                "MountainCategoryID": 11,
                "ukHillsDbLongitude": "-4.417387",
                "ukHillsDbLatitude": "56.525831",
                "ukHillsDbName": "Meall Ghaordie",
                "ukHillsDbSection": "2.2",
                "urlName": "Meall_Ghaordie",
                "Height": 1039
            },
            {
                "id": 193,
                "MountainCategoryID": 11,
                "ukHillsDbLongitude": "-5.457236",
                "ukHillsDbLatitude": "57.012776",
                "ukHillsDbName": "Sgurr na Ciche",
                "ukHillsDbSection": "10.2",
                "urlName": "Sgurr_na_Ciche",
                "Height": 1040
            },
            {
                "id": 194,
                "MountainCategoryID": 11,
                "ukHillsDbLongitude": "-4.147096",
                "ukHillsDbLatitude": "56.634142",
                "ukHillsDbName": "Carn Mairg",
                "ukHillsDbSection": "2.1",
                "urlName": "Carn_Mairg",
                "Height": 1042
            },
            {
                "id": 195,
                "MountainCategoryID": 11,
                "ukHillsDbLongitude": "-4.980722",
                "ukHillsDbLatitude": "56.554935",
                "ukHillsDbName": "Stob Coirean Albannaich",
                "ukHillsDbSection": "3.3",
                "urlName": "Stob_Coirean_Albannaich",
                "Height": 1044
            },
            {
                "id": 196,
                "MountainCategoryID": 11,
                "ukHillsDbLongitude": "-4.301689",
                "ukHillsDbLatitude": "56.521738",
                "ukHillsDbName": "Meall nan Tarmachan",
                "ukHillsDbSection": "2.2",
                "urlName": "Meall_nan_Tarmachan",
                "Height": 1044
            },
            {
                "id": 197,
                "MountainCategoryID": 11,
                "ukHillsDbLongitude": "-3.569302",
                "ukHillsDbLatitude": "56.894352",
                "ukHillsDbName": "Beinn Iutharn Mhor",
                "ukHillsDbSection": "6.2",
                "urlName": "Beinn_Iutharn_Mhor",
                "Height": 1045
            },
            {
                "id": 198,
                "MountainCategoryID": 11,
                "ukHillsDbLongitude": "-4.576632",
                "ukHillsDbLatitude": "56.356356",
                "ukHillsDbName": "Cruach Ardrain",
                "ukHillsDbSection": "1.3",
                "urlName": "Cruach_Ardrain",
                "Height": 1046
            },
            {
                "id": 199,
                "MountainCategoryID": 11,
                "ukHillsDbLongitude": "-4.661547",
                "ukHillsDbLatitude": "56.830016",
                "ukHillsDbName": "Chno Dearg",
                "ukHillsDbSection": "4.2",
                "urlName": "Chno_Dearg",
                "Height": 1046
            },
            {
                "id": 200,
                "MountainCategoryID": 11,
                "ukHillsDbLongitude": "-4.579189",
                "ukHillsDbLatitude": "57.678304",
                "ukHillsDbName": "Ben Wyvis - Glas Leathad",
                "ukHillsDbSection": "15.2",
                "urlName": "Ben_Wyvis_-_Glas_Leathad",
                "Height": 1046
            },
            {
                "id": 201,
                "MountainCategoryID": 11,
                "ukHillsDbLongitude": "-4.614896",
                "ukHillsDbLatitude": "56.489474",
                "ukHillsDbName": "Creag Mhor",
                "ukHillsDbSection": "2.2",
                "urlName": "Creag_Mhor",
                "Height": 1047
            },
            {
                "id": 202,
                "MountainCategoryID": 11,
                "ukHillsDbLongitude": "-3.303409",
                "ukHillsDbLatitude": "56.943229",
                "ukHillsDbName": "Carn an t'Sagairt Mor",
                "ukHillsDbSection": "7.1",
                "urlName": "Carn_an_tSagairt_Mor",
                "Height": 1047
            },
            {
                "id": 203,
                "MountainCategoryID": 11,
                "ukHillsDbLongitude": "-4.943130",
                "ukHillsDbLatitude": "57.449262",
                "ukHillsDbName": "Sgurr Fuarthuill",
                "ukHillsDbSection": "12.1",
                "urlName": "Sgurr_Fuarthuill",
                "Height": 1049
            },
            {
                "id": 204,
                "MountainCategoryID": 11,
                "ukHillsDbLongitude": "-4.457751",
                "ukHillsDbLatitude": "56.897105",
                "ukHillsDbName": "Geal Charn",
                "ukHillsDbSection": "4.2",
                "urlName": "Geal_Charn_2",
                "Height": 1049
            },
            {
                "id": 205,
                "MountainCategoryID": 11,
                "ukHillsDbLongitude": "-4.653805",
                "ukHillsDbLatitude": "56.929043",
                "ukHillsDbName": "Beinn a'Chaorainn",
                "ukHillsDbSection": "9.3",
                "urlName": "Beinn_aChaorainn",
                "Height": 1050
            },
            {
                "id": 206,
                "MountainCategoryID": 11,
                "ukHillsDbLongitude": "-3.558261",
                "ukHillsDbLatitude": "56.865738",
                "ukHillsDbName": "Glas Tulaichean",
                "ukHillsDbSection": "6.2",
                "urlName": "Glas_Tulaichean",
                "Height": 1051
            },
            {
                "id": 207,
                "MountainCategoryID": 11,
                "ukHillsDbLongitude": "-5.190145",
                "ukHillsDbLatitude": "57.452237",
                "ukHillsDbName": "Sgurr a'Chaorachain",
                "ukHillsDbSection": "12.1",
                "urlName": "Sgurr_aChaorachain",
                "Height": 1053
            },
            {
                "id": 208,
                "MountainCategoryID": 11,
                "ukHillsDbLongitude": "-4.999969",
                "ukHillsDbLatitude": "57.308607",
                "ukHillsDbName": "Toll Creagach",
                "ukHillsDbSection": "11.1",
                "urlName": "Toll_Creagach",
                "Height": 1054
            },
            {
                "id": 209,
                "MountainCategoryID": 11,
                "ukHillsDbLongitude": "-4.587169",
                "ukHillsDbLatitude": "56.963693",
                "ukHillsDbName": "Stob Poite Coire Ardair",
                "ukHillsDbSection": "9.3",
                "urlName": "Stob_Poite_Coire_Ardair",
                "Height": 1054
            },
            {
                "id": 210,
                "MountainCategoryID": 11,
                "ukHillsDbLongitude": "-5.464177",
                "ukHillsDbLatitude": "57.563660",
                "ukHillsDbName": "Spidean a Choire Leith",
                "ukHillsDbSection": "13.1",
                "urlName": "Spidean_a_Choire_Leith",
                "Height": 1055
            },
            {
                "id": 211,
                "MountainCategoryID": 11,
                "ukHillsDbLongitude": "-4.940052",
                "ukHillsDbLatitude": "56.743766",
                "ukHillsDbName": "Na Gruagaichean",
                "ukHillsDbSection": "4.1",
                "urlName": "Na_Gruagaichean",
                "Height": 1056
            },
            {
                "id": 212,
                "MountainCategoryID": 11,
                "ukHillsDbLongitude": "-5.259620",
                "ukHillsDbLatitude": "57.801018",
                "ukHillsDbName": "AnTeallach - Sgurr Fiona",
                "ukHillsDbSection": "14.1",
                "urlName": "AnTeallach_-_Sgurr_Fiona",
                "Height": 1060
            },
            {
                "id": 213,
                "MountainCategoryID": 11,
                "ukHillsDbLongitude": "-5.253386",
                "ukHillsDbLatitude": "57.806571",
                "ukHillsDbName": "An Teallach - Bideana ChlasThuill",
                "ukHillsDbSection": "14.1",
                "urlName": "An_Teallach_-_Bideana_ChlasThuill",
                "Height": 1062
            },
            {
                "id": 214,
                "MountainCategoryID": 11,
                "ukHillsDbLongitude": "-3.339432",
                "ukHillsDbLatitude": "56.893433",
                "ukHillsDbName": "Cairn of Claise",
                "ukHillsDbSection": "7.1",
                "urlName": "Cairn_of_Claise",
                "Height": 1064
            },
            {
                "id": 215,
                "MountainCategoryID": 11,
                "ukHillsDbLongitude": "-5.348455",
                "ukHillsDbLatitude": "57.195527",
                "ukHillsDbName": "Sgurr Fhuaran",
                "ukHillsDbSection": "11.1",
                "urlName": "Sgurr_Fhuaran",
                "Height": 1067
            },
            {
                "id": 216,
                "MountainCategoryID": 11,
                "ukHillsDbLongitude": "-3.368214",
                "ukHillsDbLatitude": "56.872457",
                "ukHillsDbName": "Glas Maol",
                "ukHillsDbSection": "7.1",
                "urlName": "Glas_Maol",
                "Height": 1068
            },
            {
                "id": 217,
                "MountainCategoryID": 11,
                "ukHillsDbLongitude": "-4.254033",
                "ukHillsDbLatitude": "56.540586",
                "ukHillsDbName": "Meall Corranaich",
                "ukHillsDbSection": "2.2",
                "urlName": "Meall_Corranaich",
                "Height": 1069
            },
            {
                "id": 218,
                "MountainCategoryID": 11,
                "ukHillsDbLongitude": "-5.159616",
                "ukHillsDbLatitude": "57.349637",
                "ukHillsDbName": "An Socach",
                "ukHillsDbSection": "12.2",
                "urlName": "An_Socach_2",
                "Height": 1069
            },
            {
                "id": 219,
                "MountainCategoryID": 11,
                "ukHillsDbLongitude": "-3.730555",
                "ukHillsDbLatitude": "56.831123",
                "ukHillsDbName": "Braigh Coire Chruinnbhal",
                "ukHillsDbSection": "6.2",
                "urlName": "Braigh_Coire_Chruinnbhal",
                "Height": 1070
            },
            {
                "id": 220,
                "MountainCategoryID": 11,
                "ukHillsDbLongitude": "-5.011726",
                "ukHillsDbLatitude": "56.637784",
                "ukHillsDbName": "Bideein nam Bian - Stob Coire Sgreamach",
                "ukHillsDbSection": "3.2",
                "urlName": "Bideein_nam_Bian_-_Stob_Coire_Sgreamach",
                "Height": 1072
            },
            {
                "id": 221,
                "MountainCategoryID": 11,
                "ukHillsDbLongitude": "-4.723051",
                "ukHillsDbLatitude": "56.502428",
                "ukHillsDbName": "Beinn Dorain",
                "ukHillsDbSection": "2.1",
                "urlName": "Beinn_Dorain",
                "Height": 1076
            },
            {
                "id": 222,
                "MountainCategoryID": 11,
                "ukHillsDbLongitude": "-5.051043",
                "ukHillsDbLatitude": "56.538846",
                "ukHillsDbName": "Ben Starav",
                "ukHillsDbSection": "3.3",
                "urlName": "Ben_Starav",
                "Height": 1078
            },
            {
                "id": 223,
                "MountainCategoryID": 11,
                "ukHillsDbLongitude": "-4.580547",
                "ukHillsDbLatitude": "56.509966",
                "ukHillsDbName": "Beinn Heasgarnich",
                "ukHillsDbSection": "2.2",
                "urlName": "Beinn_Heasgarnich",
                "Height": 1078
            },
            {
                "id": 224,
                "MountainCategoryID": 11,
                "ukHillsDbLongitude": "-4.649042",
                "ukHillsDbLatitude": "56.559754",
                "ukHillsDbName": "Beinn a'Chreachain",
                "ukHillsDbSection": "2.1",
                "urlName": "Beinn_aChreachain",
                "Height": 1081
            },
            {
                "id": 225,
                "MountainCategoryID": 11,
                "ukHillsDbLongitude": "-3.577678",
                "ukHillsDbLatitude": "57.092810",
                "ukHillsDbName": "Beinn a'Chaorainn",
                "ukHillsDbSection": "8.2",
                "urlName": "Beinn_aChaorainn_2",
                "Height": 1082
            },
            {
                "id": 226,
                "MountainCategoryID": 11,
                "ukHillsDbLongitude": "-4.902693",
                "ukHillsDbLatitude": "57.443909",
                "ukHillsDbName": "Sgurr a'Choire Ghlais",
                "ukHillsDbSection": "12.1",
                "urlName": "Sgurr_aChoire_Ghlais",
                "Height": 1083
            },
            {
                "id": 227,
                "MountainCategoryID": 11,
                "ukHillsDbLongitude": "-4.101601",
                "ukHillsDbLatitude": "56.666371",
                "ukHillsDbName": "Schiehallion",
                "ukHillsDbSection": "2.1",
                "urlName": "Schiehallion",
                "Height": 1083
            },
            {
                "id": 228,
                "MountainCategoryID": 11,
                "ukHillsDbLongitude": "-4.930093",
                "ukHillsDbLatitude": "57.785699",
                "ukHillsDbName": "Beinn Dearg",
                "ukHillsDbSection": "15.1",
                "urlName": "Beinn_Dearg_2",
                "Height": 1084
            },
            {
                "id": 229,
                "MountainCategoryID": 11,
                "ukHillsDbLongitude": "-4.510066",
                "ukHillsDbLatitude": "56.869104",
                "ukHillsDbName": "Beinn a'Chlachair",
                "ukHillsDbSection": "4.2",
                "urlName": "Beinn_aChlachair",
                "Height": 1087
            },
            {
                "id": 230,
                "MountainCategoryID": 11,
                "ukHillsDbLongitude": "-4.882436",
                "ukHillsDbLatitude": "56.568041",
                "ukHillsDbName": "Stob Ghabhar",
                "ukHillsDbSection": "3.3",
                "urlName": "Stob_Ghabhar",
                "Height": 1090
            },
            {
                "id": 231,
                "MountainCategoryID": 11,
                "ukHillsDbLongitude": "-3.586194",
                "ukHillsDbLatitude": "57.137626",
                "ukHillsDbName": "Bynack More",
                "ukHillsDbSection": "8.1",
                "urlName": "Bynack_More",
                "Height": 1090
            },
            {
                "id": 232,
                "MountainCategoryID": 11,
                "ukHillsDbLongitude": "-5.048785",
                "ukHillsDbLatitude": "57.696615",
                "ukHillsDbName": "Sgurr nan Clach Geala",
                "ukHillsDbSection": "14.2",
                "urlName": "Sgurr_nan_Clach_Geala",
                "Height": 1093
            },
            {
                "id": 233,
                "MountainCategoryID": 11,
                "ukHillsDbLongitude": "-4.905163",
                "ukHillsDbLatitude": "56.800313",
                "ukHillsDbName": "Sgurr Choinnich Mor",
                "ukHillsDbSection": "4.1",
                "urlName": "Sgurr_Choinnich_Mor",
                "Height": 1094
            },
            {
                "id": 234,
                "MountainCategoryID": 11,
                "ukHillsDbLongitude": "-5.004802",
                "ukHillsDbLatitude": "56.755704",
                "ukHillsDbName": "Sgurr a Mhaim",
                "ukHillsDbSection": "4.1",
                "urlName": "Sgurr_a_Mhaim",
                "Height": 1099
            },
            {
                "id": 235,
                "MountainCategoryID": 11,
                "ukHillsDbLongitude": "-4.872906",
                "ukHillsDbLatitude": "56.614103",
                "ukHillsDbName": "Creise",
                "ukHillsDbSection": "3.3",
                "urlName": "Creise",
                "Height": 1100
            },
            {
                "id": 236,
                "MountainCategoryID": 11,
                "ukHillsDbLongitude": "-5.155522",
                "ukHillsDbLatitude": "57.205023",
                "ukHillsDbName": "Mullach Fraoch-choire",
                "ukHillsDbSection": "11.2",
                "urlName": "Mullach_Fraoch-choire",
                "Height": 1102
            },
            {
                "id": 237,
                "MountainCategoryID": 11,
                "ukHillsDbLongitude": "-4.543194",
                "ukHillsDbLatitude": "56.825295",
                "ukHillsDbName": "Beinn Eibhinn",
                "ukHillsDbSection": "4.2",
                "urlName": "Beinn_Eibhinn",
                "Height": 1102
            },
            {
                "id": 238,
                "MountainCategoryID": 11,
                "ukHillsDbLongitude": "-4.237467",
                "ukHillsDbLatitude": "56.535493",
                "ukHillsDbName": "Beinn Ghlas",
                "ukHillsDbSection": "2.2",
                "urlName": "Beinn_Ghlas",
                "Height": 1103
            },
            {
                "id": 239,
                "MountainCategoryID": 11,
                "ukHillsDbLongitude": "-4.761060",
                "ukHillsDbLatitude": "56.823360",
                "ukHillsDbName": "Stob a'Choire Mheadhoin",
                "ukHillsDbSection": "4.1",
                "urlName": "Stob_aChoire_Mheadhoin",
                "Height": 1106
            },
            {
                "id": 240,
                "MountainCategoryID": 11,
                "ukHillsDbLongitude": "-4.853176",
                "ukHillsDbLatitude": "56.611861",
                "ukHillsDbName": "Meall a'Bhuiridh",
                "ukHillsDbSection": "3.3",
                "urlName": "Meall_aBhuiridh",
                "Height": 1108
            },
            {
                "id": 241,
                "MountainCategoryID": 11,
                "ukHillsDbLongitude": "-5.096846",
                "ukHillsDbLatitude": "57.176822",
                "ukHillsDbName": "Sgurr nan Conbhairean",
                "ukHillsDbSection": "11.2",
                "urlName": "Sgurr_nan_Conbhairean",
                "Height": 1109
            },
            {
                "id": 242,
                "MountainCategoryID": 11,
                "ukHillsDbLongitude": "-3.273892",
                "ukHillsDbLatitude": "56.945330",
                "ukHillsDbName": "Carn a Choire Boidheach",
                "ukHillsDbSection": "7.1",
                "urlName": "Carn_a_Choire_Boidheach",
                "Height": 1110
            },
            {
                "id": 243,
                "MountainCategoryID": 11,
                "ukHillsDbLongitude": "-5.017179",
                "ukHillsDbLatitude": "57.700069",
                "ukHillsDbName": "Sgurr Mor",
                "ukHillsDbSection": "14.2",
                "urlName": "Sgurr_Mor_2",
                "Height": 1112
            },
            {
                "id": 244,
                "MountainCategoryID": 11,
                "ukHillsDbLongitude": "-5.049027",
                "ukHillsDbLatitude": "57.299337",
                "ukHillsDbName": "Tom a Choinich",
                "ukHillsDbSection": "11.1",
                "urlName": "Tom_a_Choinich",
                "Height": 1113
            },
            {
                "id": 245,
                "MountainCategoryID": 11,
                "ukHillsDbLongitude": "-3.751169",
                "ukHillsDbLatitude": "57.026713",
                "ukHillsDbName": "Monadh Mor",
                "ukHillsDbSection": "8.1",
                "urlName": "Monadh_Mor",
                "Height": 1115
            },
            {
                "id": 246,
                "MountainCategoryID": 11,
                "ukHillsDbLongitude": "-4.773754",
                "ukHillsDbLatitude": "56.817685",
                "ukHillsDbName": "Stob Coire Easain",
                "ukHillsDbSection": "4.1",
                "urlName": "Stob_Coire_Easain",
                "Height": 1116
            },
            {
                "id": 247,
                "MountainCategoryID": 11,
                "ukHillsDbLongitude": "-4.886298",
                "ukHillsDbLatitude": "56.810638",
                "ukHillsDbName": "Stob Coirean Laoigh",
                "ukHillsDbSection": "4.1",
                "urlName": "Stob_Coirean_Laoigh",
                "Height": 1116
            },
            {
                "id": 248,
                "MountainCategoryID": 11,
                "ukHillsDbLongitude": "-4.530583",
                "ukHillsDbLatitude": "56.832741",
                "ukHillsDbName": "Aonach Beag",
                "ukHillsDbSection": "4.2",
                "urlName": "Aonach_Beag",
                "Height": 1118
            },
            {
                "id": 249,
                "MountainCategoryID": 11,
                "ukHillsDbLongitude": "-3.812498",
                "ukHillsDbLatitude": "57.068070",
                "ukHillsDbName": "Sgor Gaoith",
                "ukHillsDbSection": "8.1",
                "urlName": "Sgor_Gaoith",
                "Height": 1118
            },
            {
                "id": 250,
                "MountainCategoryID": 11,
                "ukHillsDbLongitude": "-4.208270",
                "ukHillsDbLatitude": "56.564773",
                "ukHillsDbName": "Meall Garbh",
                "ukHillsDbSection": "2.2",
                "urlName": "Meall_Garbh_2",
                "Height": 1118
            },
            {
                "id": 251,
                "MountainCategoryID": 11,
                "ukHillsDbLongitude": "-4.216137",
                "ukHillsDbLatitude": "56.560140",
                "ukHillsDbName": "An Stuc",
                "ukHillsDbSection": "2.2",
                "urlName": "An_Stuc",
                "Height": 1118
            },
            {
                "id": 252,
                "MountainCategoryID": 11,
                "ukHillsDbLongitude": "-5.155414",
                "ukHillsDbLatitude": "57.184351",
                "ukHillsDbName": "A Chralaig",
                "ukHillsDbSection": "11.2",
                "urlName": "A_Chralaig",
                "Height": 1120
            },
            {
                "id": 253,
                "MountainCategoryID": 11,
                "ukHillsDbLongitude": "-5.132855",
                "ukHillsDbLatitude": "56.426239",
                "ukHillsDbName": "Ben Cruachan",
                "ukHillsDbSection": "3.3",
                "urlName": "Ben_Cruachan",
                "Height": 1126
            },
            {
                "id": 254,
                "MountainCategoryID": 11,
                "ukHillsDbLongitude": "-4.602784",
                "ukHillsDbLatitude": "56.951686",
                "ukHillsDbName": "Creag Meagaidh",
                "ukHillsDbSection": "9.3",
                "urlName": "Creag_Meagaidh",
                "Height": 1129
            },
            {
                "id": 255,
                "MountainCategoryID": 11,
                "ukHillsDbLongitude": "-3.688331",
                "ukHillsDbLatitude": "56.839788",
                "ukHillsDbName": "Carn nan Gabhar",
                "ukHillsDbSection": "6.2",
                "urlName": "Carn_nan_Gabhar",
                "Height": 1129
            },
            {
                "id": 256,
                "MountainCategoryID": 11,
                "ukHillsDbLongitude": "-5.105769",
                "ukHillsDbLatitude": "57.361765",
                "ukHillsDbName": "An Riabhachan",
                "ukHillsDbSection": "12.2",
                "urlName": "An_Riabhachan",
                "Height": 1130
            },
            {
                "id": 257,
                "MountainCategoryID": 11,
                "ukHillsDbLongitude": "-4.926125",
                "ukHillsDbLatitude": "56.753981",
                "ukHillsDbName": "Binnein Mor",
                "ukHillsDbSection": "4.1",
                "urlName": "Binnein_Mor",
                "Height": 1130
            },
            {
                "id": 258,
                "MountainCategoryID": 11,
                "ukHillsDbLongitude": "-4.811148",
                "ukHillsDbLatitude": "56.397097",
                "ukHillsDbName": "Ben Lui (Beinn Laoigh)",
                "ukHillsDbSection": "1.4",
                "urlName": "Ben_Lui_(Beinn_Laoigh)",
                "Height": 1130
            },
            {
                "id": 259,
                "MountainCategoryID": 11,
                "ukHillsDbLongitude": "-4.511237",
                "ukHillsDbLatitude": "56.837626",
                "ukHillsDbName": "Geal Charn",
                "ukHillsDbSection": "4.2",
                "urlName": "Geal_Charn_3",
                "Height": 1132
            },
            {
                "id": 260,
                "MountainCategoryID": 11,
                "ukHillsDbLongitude": "-4.465373",
                "ukHillsDbLatitude": "56.813377",
                "ukHillsDbName": "Ben Alder",
                "ukHillsDbSection": "4.2",
                "urlName": "Ben_Alder",
                "Height": 1148
            },
            {
                "id": 261,
                "MountainCategoryID": 11,
                "ukHillsDbLongitude": "-5.061475",
                "ukHillsDbLatitude": "57.369143",
                "ukHillsDbName": "Sgurr na Lapaich",
                "ukHillsDbSection": "12.2",
                "urlName": "Sgurr_na_Lapaich",
                "Height": 1150
            },
            {
                "id": 262,
                "MountainCategoryID": 11,
                "ukHillsDbLongitude": "-5.030066",
                "ukHillsDbLatitude": "56.642732",
                "ukHillsDbName": "BideannamBian",
                "ukHillsDbSection": "3.2",
                "urlName": "BideannamBian",
                "Height": 1150
            },
            {
                "id": 263,
                "MountainCategoryID": 11,
                "ukHillsDbLongitude": "-5.222783",
                "ukHillsDbLatitude": "57.254550",
                "ukHillsDbName": "Sgurr nan Ceathreamhnan",
                "ukHillsDbSection": "11.1",
                "urlName": "Sgurr_nan_Ceathreamhnan",
                "Height": 1151
            },
            {
                "id": 264,
                "MountainCategoryID": 11,
                "ukHillsDbLongitude": "-3.246435",
                "ukHillsDbLatitude": "56.959982",
                "ukHillsDbName": "Lochnagar",
                "ukHillsDbSection": "7.1",
                "urlName": "Lochnagar",
                "Height": 1155
            },
            {
                "id": 265,
                "MountainCategoryID": 11,
                "ukHillsDbLongitude": "-3.622572",
                "ukHillsDbLatitude": "57.062587",
                "ukHillsDbName": "Derry Cairngorm",
                "ukHillsDbSection": "8.1",
                "urlName": "Derry_Cairngorm",
                "Height": 1155
            },
            {
                "id": 266,
                "MountainCategoryID": 11,
                "ukHillsDbLongitude": "-3.723993",
                "ukHillsDbLatitude": "57.009120",
                "ukHillsDbName": "Beinn Bhrotain",
                "ukHillsDbSection": "8.1",
                "urlName": "Beinn_Bhrotain",
                "Height": 1157
            },
            {
                "id": 267,
                "MountainCategoryID": 11,
                "ukHillsDbLongitude": "-4.537109",
                "ukHillsDbLatitude": "56.370653",
                "ukHillsDbName": "Stob Binnein",
                "ukHillsDbSection": "1.3",
                "urlName": "Stob_Binnein",
                "Height": 1165
            },
            {
                "id": 268,
                "MountainCategoryID": 11,
                "ukHillsDbLongitude": "-3.435976",
                "ukHillsDbLatitude": "57.099006",
                "ukHillsDbName": "Ben Avon - Leabaoidhan",
                "ukHillsDbSection": "8.2",
                "urlName": "Ben_Avon_-_Leabaoidhan",
                "Height": 1171
            },
            {
                "id": 269,
                "MountainCategoryID": 11,
                "ukHillsDbLongitude": "-4.541359",
                "ukHillsDbLatitude": "56.385845",
                "ukHillsDbName": "Ben More",
                "ukHillsDbSection": "1.3",
                "urlName": "Ben_More_2",
                "Height": 1174
            },
            {
                "id": 270,
                "MountainCategoryID": 11,
                "ukHillsDbLongitude": "-4.849561",
                "ukHillsDbLatitude": "56.823167",
                "ukHillsDbName": "Stob Choire Claurigh",
                "ukHillsDbSection": "4.1",
                "urlName": "Stob_Choire_Claurigh",
                "Height": 1177
            },